{"code":200,"currentTime":1725834259675,"data":{"limitExceeded":false,"list":[{"code":"22000","direction":"E","id":"unitrans_22000","lat":38.540031,"locationType":0,"lon":-121.746053,"name":"Hutchison Drive & Old Davis Road (EB)","parent":"","routeIds":["unitrans_L","unitrans_T","unitrans_W","unitrans_Z"],"staticRouteIds":["unitrans_L","unitrans_T","unitrans_W","unitrans_Z"],"wheelchairBoarding":"UNKNOWN"},{"code":"22001","direction":"W","id":"unitrans_22001","lat":38.540158,"locationType":0,"lon":-121.746139,"name":"Hutchison Drive & Old Davis Road (WB)","parent":"","routeIds":["unitrans_L","unitrans_T","unitrans_W","unitrans_Z"],"staticRouteIds":["unitrans_L","unitrans_T","unitrans_W","unitrans_Z"],"wheelchairBoarding":"UNKNOWN"},{"code":"22002","direction":"E","id":"unitrans_22002","lat":38.541523,"locationType":0,"lon":-121.742543,"name":"1st St & C St / Downtown (EB)","parent":"","routeIds":["unitrans_M","unitrans_T","unitrans_W"],"staticRouteIds":["unitrans_M","unitrans_T","unitrans_W"],"wheelchairBoarding":"UNKNOWN"},{"code":"22003","direction":"W","id":"unitrans_22003","lat":38.541818,"locationType":0,"lon":-121.742051,"name":"1st St & D St / Downtown (WB)","parent":"","routeIds":["unitrans_M","unitrans_T","unitrans_W"],"staticRouteIds":["unitrans_M","unitrans_T","unitrans_W"],"wheelchairBoarding":"UNKNOWN"},{"code":"22004","direction":"E","id":"unitrans_22004","lat":38.540645,"locationType":0,"lon":-121.738537,"name":"Richards Blvd & Olive Drive (SB)","parent":"","routeIds":["unitrans_M","unitrans_T","unitrans_W"],"staticRouteIds":["unitrans_M","unitrans_T","unitrans_W"],"wheelchairBoarding":"UNKNOWN"},{"code":"22005","direction":"E","id":"unitrans_22005","lat":38.542661,"locationType":0,"lon":-121.743914,"name":"2nd St & B St (EB)","parent":"","routeIds":["unitrans_A","unitrans_O","unitrans_Z"],"staticRouteIds":["unitrans_A","unitrans_O","unitrans_Z"],"wheelchairBoarding":"UNKNOWN"},{"code":"22006","direction":"S","id":"unitrans_22006","lat":38.541913,"locationType":0,"lon":-121.74309,"name":"C St & 1st St (SB)","parent":"","routeIds":["unitrans_Z"],"staticRouteIds":["unitrans_Z"],"wheelchairBoarding":"UNKNOWN"},{"code":"22007","direction":"E","id":"unitrans_22007","lat":38.543139,"locationType":0,"lon":-121.741185,"name":"2nd St & E St / Downtown (EB)","parent":"","routeIds":["unitrans_A","unitrans_O","unitrans_Z"],"staticRouteIds":["unitrans_A","unitrans_O","unitrans_Z"],"wheelchairBoarding":"UNKNOWN"},{"code":"22008","direction":"E","id":"unitrans_22008","lat":38.546127,"locationType":0,"lon":-121.747104,"name":"Russell & A St (EB)","parent":"","routeIds":["unitrans_A","unitrans_M","unitrans_O"],"staticRouteIds":["unitrans_A","unitrans_M","unitrans_O"],"wheelchairBoarding":"UNKNOWN"},{"code":"22009","direction":"W","id":"unitrans_22009","lat":38.54333,"locationType":0,"lon":-121.74093,"name":"2nd St & E St / Downtown (WB)","parent":"","routeIds":["unitrans_A","unitrans_O","unitrans_Z"],"staticRouteIds":["unitrans_A","unitrans_O","unitrans_Z"],"wheelchairBoarding":"UNKNOWN"},{"code":"22010","direction":"S","id":"unitrans_22010","lat":38.54839,"locationType":0,"lon":-121.741446,"name":"F St & 6th St/Davis Food Co-op (SB)","parent":"","routeIds":["unitrans_E"],"staticRouteIds":["unitrans_E"],"wheelchairBoarding":"UNKNOWN"},{"code":"22011","direction":"N","id":"unitrans_22011","lat":38.543988,"locationType":0,"lon":-121.738023,"name":"H St & 2nd St / Amtrak (NB)","parent":"","routeIds":["unitrans_A","unitrans_O","unitrans_Z"],"staticRouteIds":["unitrans_A","unitrans_O","unitrans_Z"],"wheelchairBoarding":"UNKNOWN"},{"code":"22012","direction":"S","id":"unitrans_22012","lat":38.543941,"locationType":0,"lon":-121.738245,"name":"H St & 2nd St / Amtrak (SB)","parent":"","routeIds":["unitrans_A","unitrans_O","unitrans_Z"],"staticRouteIds":["unitrans_A","unitrans_O","unitrans_Z"],"wheelchairBoarding":"UNKNOWN"},{"code":"22013","direction":"N","id":"unitrans_22013","lat":38.544903,"locationType":0,"lon":-121.74487,"name":"B St & 4th St / Central Park (NB)","parent":"","routeIds":["unitrans_A","unitrans_L","unitrans_M","unitrans_O"],"staticRouteIds":["unitrans_A","unitrans_L","unitrans_M","unitrans_O"],"wheelchairBoarding":"UNKNOWN"},{"code":"22014","direction":"S","id":"unitrans_22014","lat":38.545045,"locationType":0,"lon":-121.745131,"name":"B St & 4th St / Central Park (SB)","parent":"","routeIds":["unitrans_A","unitrans_L","unitrans_M","unitrans_O"],"staticRouteIds":["unitrans_A","unitrans_L","unitrans_M","unitrans_O"],"wheelchairBoarding":"UNKNOWN"},{"code":"22015","direction":"","id":"unitrans_22015","lat":38.544213,"locationType":0,"lon":-121.743911,"name":"3rd St & C St (WB)","parent":"","routeIds":[],"staticRouteIds":[],"wheelchairBoarding":"UNKNOWN"},{"code":"22016","direction":"","id":"unitrans_22016","lat":38.544133,"locationType":0,"lon":-121.743222,"name":"3rd St & C St (EB)","parent":"","routeIds":[],"staticRouteIds":[],"wheelchairBoarding":"UNKNOWN"},{"code":"22017","direction":"","id":"unitrans_22017","lat":38.54455,"locationType":0,"lon":-121.741693,"name":"3rd St & E St (WB)","parent":"","routeIds":[],"staticRouteIds":[],"wheelchairBoarding":"UNKNOWN"},{"code":"22018","direction":"","id":"unitrans_22018","lat":38.544507,"locationType":0,"lon":-121.741143,"name":"3rd St & E St (EB)","parent":"","routeIds":[],"staticRouteIds":[],"wheelchairBoarding":"UNKNOWN"},{"code":"22019","direction":"","id":"unitrans_22019","lat":38.545691,"locationType":0,"lon":-121.740698,"name":"F St & 4th St  (SB)","parent":"","routeIds":[],"staticRouteIds":[],"wheelchairBoarding":"UNKNOWN"},{"code":"22020","direction":"","id":"unitrans_22020","lat":38.546296,"locationType":0,"lon":-121.740677,"name":"F St & 4th St  (NB)","parent":"","routeIds":[],"staticRouteIds":[],"wheelchairBoarding":"UNKNOWN"}],"outOfRange":false,"references":{"agencies":[{"disclaimer":"","email":"","fareUrl":"","id":"unitrans","lang":"en","name":"Unitrans","phone":"530-752-BUSS","privateService":false,"timezone":"America/Los_Angeles","url":"http://unitrans.ucdavis.edu"}],"routes":[{"agencyId":"unitrans","color":"F68D41","description":"","id":"unitrans_L","longName":"E 8th/Pole Line/Moore/Loyola","nullSafeShortName":"L","shortName":"L","textColor":"FFFFFF","type":3,"url":""},{"agencyId":"unitrans","color":"E88689","description":"","id":"unitrans_T","longName":"Davis Senior High School","nullSafeShortName":"T","shortName":"T","textColor":"FFFFFF","type":3,"url":""},{"agencyId":"unitrans","color":"1B75BB","description":"","id":"unitrans_W","longName":"Cowell/Lillard/Drummond","nullSafeShortName":"W","shortName":"W","textColor":"FFFFFF","type":3,"url":""},{"agencyId":"unitrans","color":"007F7F","description":"","id":"unitrans_Z","longName":"Amtrak/Cantrill/5th","nullSafeShortName":"Z","shortName":"Z","textColor":"FFFFFF","type":3,"url":""},{"agencyId":"unitrans","color":"AB1D53","description":"","id":"unitrans_M","longName":"B St/Cowell/Drew","nullSafeShortName":"M","shortName":"M","textColor":"FFFFFF","type":3,"url":""},{"agencyId":"unitrans","color":"FDBB14","description":"","id":"unitrans_A","longName":"Amtrak/5th/Alhambra","nullSafeShortName":"A","shortName":"A","textColor":"000000","type":3,"url":""},{"agencyId":"unitrans","color":"8F5CA5","description":"","id":"unitrans_O","longName":"Amtrak/5th/Alhambra/Target","nullSafeShortName":"O","shortName":"O","textColor":"FFFFFF","type":3,"url":""},{"agencyId":"unitrans","color":"94CA63","description":"","id":"unitrans_E","longName":"Downtown/F St/J St","nullSafeShortName":"E","shortName":"E","textColor":"FFFFFF","type":3,"url":""},{"agencyId":"unitrans","color":"ED1C24","description":"","id":"unitrans_Q","longName":"Davis Perimeter Clockwise","nullSafeShortName":"Q","shortName":"Q","textColor":"FFFFFF","type":3,"url":""},{"agencyId":"unitrans","color":"ED1C24","description":"","id":"unitrans_P","longName":"Davis Perimeter Counter Clockwise","nullSafeShortName":"P","shortName":"P","textColor":"FFFFFF","type":3,"url":""},{"agencyId":"unitrans","color":"652C90","description":"","id":"unitrans_F","longName":"Oak/Anderson/F St","nullSafeShortName":"F","shortName":"F","textColor":"FFFFFF","type":3,"url":""},{"agencyId":"unitrans","color":"00AEC1","description":"","id":"unitrans_G","longName":"Anderson/Alvarado/N Sycamore/MU Terminal","nullSafeShortName":"G","shortName":"G","textColor":"FFFFFF","type":3,"url":""},{"agencyId":"unitrans","color":"F26D28","description":"","id":"unitrans_J","longName":"Anderson/Alvarado/N Sycamore/Silo Terminal","nullSafeShortName":"J","shortName":"J","textColor":"FFFFFF","type":3,"url":""},{"agencyId":"unitrans","color":"D1509D","description":"","id":"unitrans_C","longName":"Sycamore/Wake Forest/Cuarto Dorms","nullSafeShortName":"C","shortName":"C","textColor":"FFFFFF","type":3,"url":""},{"agencyId":"unitrans","color":"0E6734","description":"","id":"unitrans_B","longName":"Sycamore/Drake","nullSafeShortName":"B","shortName":"B","textColor":"FFFFFF","type":3,"url":""},{"agencyId":"unitrans","color":"4DC9F4","description":"","id":"unitrans_K","longName":"Lake/Arlington/Arthur","nullSafeShortName":"K","shortName":"K","textColor":"FFFFFF","type":3,"url":""},{"agencyId":"unitrans","color":"61A543","description":"","id":"unitrans_U","longName":"West Village via MU Terminal","nullSafeShortName":"U","shortName":"U","textColor":"FFFFFF","type":3,"url":""},{"agencyId":"unitrans","color":"2E3092","description":"","id":"unitrans_D","longName":"Lake/Arlington","nullSafeShortName":"D","shortName":"D","textColor":"FFFFFF","type":3,"url":""},{"agencyId":"unitrans","color":"59A96A","description":"","id":"unitrans_V","longName":"West Village - ALL STOPS","nullSafeShortName":"V","shortName":"V","textColor":"FFFFFF","type":3,"url":""}],"situations":[],"stopTimes":[],"stops":[],"trips":[]}},"text":"OK","version":2}
